# 
# Header Description:
# 
# Version: v3.0.6.4 Platform: 13 Manufacturer: samsung Model: SM-G781B
# 
# Raw,utcTimeMillis,TimeNanos,LeapSecond,TimeUncertaintyNanos,FullBiasNanos,BiasNanos,BiasUncertaintyNanos,DriftNanosPerSecond,DriftUncertaintyNanosPerSecond,HardwareClockDiscontinuityCount,Svid,TimeOffsetNanos,State,ReceivedSvTimeNanos,ReceivedSvTimeUncertaintyNanos,Cn0DbHz,PseudorangeRateMetersPerSecond,PseudorangeRateUncertaintyMetersPerSecond,AccumulatedDeltaRangeState,AccumulatedDeltaRangeMeters,AccumulatedDeltaRangeUncertaintyMeters,CarrierFrequencyHz,CarrierCycles,CarrierPhase,CarrierPhaseUncertainty,MultipathIndicator,SnrInDb,ConstellationType,AgcDb,BasebandCn0DbHz,FullInterSignalBiasNanos,FullInterSignalBiasUncertaintyNanos,SatelliteInterSignalBiasNanos,SatelliteInterSignalBiasUncertaintyNanos,CodeType,ChipsetElapsedRealtimeNanos
# 
# UncalAccel,utcTimeMillis,elapsedRealtimeNanos,UncalAccelXMps2,UncalAccelYMps2,UncalAccelZMps2,BiasXMps2,BiasYMps2,BiasZMps2
# 
# Accel,utcTimeMillis,elapsedRealtimeNanos,AccelXMps2,AccelYMps2,AccelZMps2
# 
# UncalGyro,utcTimeMillis,elapsedRealtimeNanos,UncalGyroXRadPerSec,UncalGyroYRadPerSec,UncalGyroZRadPerSec,DriftXRadPerSec,DriftYRadPerSec,DriftZRadPerSec
# 
# Gyro,utcTimeMillis,elapsedRealtimeNanos,GyroXRadPerSec,GyroYRadPerSec,GyroZRadPerSec
# 
# UncalMag,utcTimeMillis,elapsedRealtimeNanos,UncalMagXMicroT,UncalMagYMicroT,UncalMagZMicroT,BiasXMicroT,BiasYMicroT,BiasZMicroT
# 
# Mag,utcTimeMillis,elapsedRealtimeNanos,MagXMicroT,MagYMicroT,MagZMicroT
# 
# OrientationDeg,utcTimeMillis,elapsedRealtimeNanos,yawDeg,rollDeg,pitchDeg
# 
# Fix,Provider,LatitudeDegrees,LongitudeDegrees,AltitudeMeters,SpeedMps,AccuracyMeters,BearingDegrees,UnixTimeMillis,SpeedAccuracyMps,BearingAccuracyDegrees,elapsedRealtimeNanos,VerticalAccuracyMeters,MockLocation,NumberOfUsedSignals,VerticalSpeedAccuracyMps,SolutionType
# 
# Nav,Svid,Type,Status,MessageId,Sub-messageId,Data(Bytes)
# 
# Status,UnixTimeMillis,SignalCount,SignalIndex,ConstellationType,Svid,CarrierFrequencyHz,Cn0DbHz,AzimuthDegrees,ElevationDegrees,UsedInFix,HasAlmanacData,HasEphemerisData,BasebandCn0DbHz
# 
# Agc,utcTimeMillis,TimeNanos,LeapSecond,TimeUncertaintyNanos,FullBiasNanos,BiasNanos,BiasUncertaintyNanos,DriftNanosPerSecond,DriftUncertaintyNanosPerSecond,HardwareClockDiscontinuityCount,AgcDb,CarrierFrequencyHz,ConstellationType
# 
Fix,FLP,33.8182582000,35.4907954000,697.5000610351562,0.00000000000006483594,7.521,,1719418149881,0.19209373,,294392884322176,18.537252,0,,,
Status,,43,0,1,2,1575420030,24.00,180.0,18.0,1,1,1,19.0
Status,,43,1,1,3,1575420030,24.20,88.0,66.0,1,1,1,19.2
Status,,43,2,1,4,1575420030,24.50,354.0,63.0,1,1,1,19.5
Status,,43,3,1,6,1575420030,24.00,307.0,28.0,1,1,1,19.0
Status,,43,4,1,7,1575420030,24.80,209.0,26.0,1,1,1,19.8
Status,,43,5,1,9,1575420030,23.70,286.0,44.0,1,1,1,18.7
Status,,43,6,1,16,1575420030,25.00,105.0,18.0,1,1,1,20.0
Status,,43,7,1,17,1575420030,23.90,248.0,1.0,0,1,1,18.9
Status,,43,8,1,19,1575420030,24.20,270.0,3.0,0,1,1,19.2
Status,,43,9,1,21,1575420030,23.90,171.0,7.0,1,1,1,18.9
Status,,43,10,1,26,1575420030,24.70,66.0,18.0,1,1,1,19.7
Status,,43,11,1,31,1575420030,24.90,42.0,18.0,1,1,1,19.9
Status,,43,12,3,2,1599750020,0.00,307.0,28.0,0,1,0,0.0
Status,,43,13,3,12,1601437440,0.00,157.0,26.0,0,1,1,0.0
Status,,43,14,3,11,1602000000,0.00,84.0,46.0,0,1,1,0.0
Status,,43,15,3,1,1602562560,0.00,12.0,49.0,0,1,0,0.0
Status,,43,16,3,24,1603124990,0.00,234.0,30.0,0,1,1,0.0
Status,,43,17,3,17,1604249980,0.00,298.0,30.0,0,1,0,0.0
Status,,43,18,3,8,1605374980,0.00,73.0,17.0,0,1,1,0.0
Status,,43,19,5,2,1561097980,0.00,115.0,26.0,0,1,0,0.0
Status,,43,20,5,3,1561097980,0.00,98.0,2.0,0,1,0,0.0
Status,,43,21,5,5,1561097980,0.00,140.0,44.0,0,1,0,0.0
Status,,43,22,5,6,1561097980,0.00,43.0,26.0,0,1,0,0.0
Status,,43,23,5,9,1561097980,0.00,45.0,43.0,0,1,0,0.0
Status,,43,24,5,13,1561097980,0.00,135.0,8.0,0,1,0,0.0
Status,,43,25,5,16,1561097980,0.00,42.0,24.0,0,1,0,0.0
Status,,43,26,5,19,1561097980,0.00,334.0,56.0,0,1,0,0.0
Status,,43,27,5,20,1561097980,0.00,68.0,47.0,0,1,1,0.0
Status,,43,28,5,22,1561097980,0.00,293.0,14.0,0,1,0,0.0
Status,,43,29,5,29,1561097980,0.00,209.0,11.0,0,1,1,0.0
Status,,43,30,5,32,1561097980,0.00,98.0,1.0,0,1,0,0.0
Status,,43,31,5,35,1561097980,0.00,267.0,21.0,0,1,1,0.0
Status,,43,32,5,36,1561097980,0.00,182.0,21.0,0,1,0,0.0
Status,,43,33,5,37,1561097980,0.00,54.0,30.0,0,1,0,0.0
Status,,43,34,6,4,1575420030,0.00,265.0,19.0,0,1,0,0.0
Status,,43,35,6,10,1575420030,0.00,306.0,34.0,0,1,0,0.0
Status,,43,36,6,11,1575420030,0.00,323.0,11.0,0,1,0,0.0
Status,,43,37,6,12,1575420030,0.00,279.0,50.0,0,1,0,0.0
Status,,43,38,6,19,1575420030,0.00,327.0,63.0,0,1,0,0.0
Status,,43,39,6,21,1575420030,0.00,129.0,18.0,0,1,0,0.0
Status,,43,40,6,26,1575420030,0.00,163.0,2.0,0,1,0,0.0
Status,,43,41,6,27,1575420030,0.00,75.0,18.0,0,1,0,0.0
Status,,43,42,6,33,1575420030,0.00,192.0,40.0,0,1,1,0.0
Raw,1719418150446,285233178000000,18,,-1403168135268768923,0.17931270599365234,424.7555916663259,-3.3858178734454505,16.231945208565808,60,2,0.0,16399,317368367032645,655,27.4,628.7588500976562,2.447000026702881,16,0.0,0.0,1575420030,,,,0,,1,-1.56,24.0,0.0,0.0,,,C,294379749182905
Raw,1719418150446,285233178000000,18,,-1403168135268768923,0.17931270599365234,424.7555916663259,-3.3858178734454505,16.231945208565808,60,3,0.0,16399,317368378641274,655,27.6,153.72874450683594,2.4635000228881836,16,0.0,0.0,1575420030,,,,0,,1,-1.56,24.200000000000003,0.0,0.0,,,C,294379749182905
Raw,1719418150446,285233178000000,18,,-1403168135268768923,0.17931270599365234,424.7555916663259,-3.3858178734454505,16.231945208565808,60,4,0.0,16399,317368378050074,655,27.9,74.25259399414062,2.4635000228881836,16,0.0,0.0,1575420030,,,,0,,1,-1.56,24.5,0.0,0.0,,,C,294379749182905
Raw,1719418150446,285233178000000,18,,-1403168135268768923,0.17931270599365234,424.7555916663259,-3.3858178734454505,16.231945208565808,60,6,0.0,16399,317368370505854,655,27.4,-364.7834777832031,2.451500177383423,16,0.0,0.0,1575420030,,,,0,,1,-1.56,24.0,0.0,0.0,,,C,294379749182905
Raw,1719418150446,285233178000000,18,,-1403168135268768923,0.17931270599365234,424.7555916663259,-3.3858178734454505,16.231945208565808,60,7,0.0,16399,317368369282314,569,28.2,-566.9038696289062,2.369999885559082,16,0.0,0.0,1575420030,,,,0,,1,-1.56,24.8,0.0,0.0,,,C,294379749182905
Raw,1719418150446,285233178000000,18,,-1403168135268768923,0.17931270599365234,424.7555916663259,-3.3858178734454505,16.231945208565808,60,9,0.0,16399,317368374732028,655,27.1,-285.86865234375,2.4574999809265137,16,0.0,0.0,1575420030,,,,0,,1,-1.56,23.700000000000003,0.0,0.0,,,C,294379749182905
Raw,1719418150446,285233178000000,18,,-1403168135268768923,0.17931270599365234,424.7555916663259,-3.3858178734454505,16.231945208565808,60,16,0.0,16399,317368368147599,561,28.4,-409.4073181152344,1.003499984741211,16,0.0,0.0,1575420030,,,,0,,1,-1.56,25.0,0.0,0.0,,,C,294379749182905
Raw,1719418150446,285233178000000,18,,-1403168135268768923,0.17931270599365234,424.7555916663259,-3.3858178734454505,16.231945208565808,60,17,0.0,16399,317368361937588,655,27.3,363.08984375,2.438000202178955,16,0.0,0.0,1575420030,,,,0,,1,-1.56,23.900000000000002,0.0,0.0,,,C,294379749182905
Raw,1719418150446,285233178000000,18,,-1403168135268768923,0.17931270599365234,424.7555916663259,-3.3858178734454505,16.231945208565808,60,19,0.0,16399,317368363449960,655,27.6,347.5333251953125,2.440999984741211,16,0.0,0.0,1575420030,,,,0,,1,-1.56,24.200000000000003,0.0,0.0,,,C,294379749182905
Raw,1719418150446,285233178000000,18,,-1403168135268768923,0.17931270599365234,424.7555916663259,-3.3858178734454505,16.231945208565808,60,21,0.0,16399,317368363208667,655,27.3,591.4041748046875,2.440999984741211,16,0.0,0.0,1575420030,,,,0,,1,-1.56,23.900000000000002,0.0,0.0,,,C,294379749182905
Raw,1719418150446,285233178000000,18,,-1403168135268768923,0.17931270599365234,424.7555916663259,-3.3858178734454505,16.231945208565808,60,26,0.0,16399,317368368133323,569,28.1,55.070987701416016,2.368499994277954,16,0.0,0.0,1575420030,,,,0,,1,-1.56,24.700000000000003,0.0,0.0,,,C,294379749182905
Raw,1719418150446,285233178000000,18,,-1403168135268768923,0.17931270599365234,424.7555916663259,-3.3858178734454505,16.231945208565808,60,31,0.0,16399,317368367639078,569,28.3,657.2648315429688,2.367000102996826,16,0.0,0.0,1575420030,,,,0,,1,-1.56,24.900000000000002,0.0,0.0,,,C,294379749182905
Fix,GPS,33.8182581800,35.4907953600,192.13824462890625,0.0,3.7900925,,1719418151000,0.20615529,,294393883294936,3.323498,0,,,
Fix,FLP,33.8182582000,35.4907954000,697.5000610351562,0.00000000000003056361,6.314,,1719418150880,0.20615529,,294393883294936,18.547243,0,,,
Status,1719418151000,43,0,1,2,1575420030,24.10,180.0,18.0,1,1,1,19.1
Status,1719418151000,43,1,1,3,1575420030,24.50,88.0,66.0,1,1,1,19.5
Status,1719418151000,43,2,1,4,1575420030,24.50,354.0,63.0,1,1,1,19.5
Status,1719418151000,43,3,1,6,1575420030,24.00,307.0,28.0,1,1,1,19.0
Status,1719418151000,43,4,1,7,1575420030,25.00,209.0,26.0,1,1,1,20.0
Status,1719418151000,43,5,1,9,1575420030,24.40,286.0,44.0,1,1,1,19.4
Status,1719418151000,43,6,1,16,1575420030,25.10,105.0,18.0,1,1,1,20.1
Status,1719418151000,43,7,1,17,1575420030,23.80,248.0,1.0,0,1,1,18.8
Status,1719418151000,43,8,1,19,1575420030,24.40,270.0,3.0,0,1,1,19.4
Status,1719418151000,43,9,1,21,1575420030,23.90,171.0,7.0,1,1,1,18.9
Status,1719418151000,43,10,1,26,1575420030,24.50,66.0,18.0,1,1,1,19.5
Status,1719418151000,43,11,1,31,1575420030,24.60,42.0,18.0,1,1,1,19.6
Status,1719418151000,43,12,3,2,1599750020,0.00,307.0,28.0,0,1,0,0.0
Status,1719418151000,43,13,3,12,1601437440,0.00,157.0,26.0,0,1,1,0.0
Status,1719418151000,43,14,3,11,1602000000,0.00,84.0,46.0,0,1,1,0.0
Status,1719418151000,43,15,3,1,1602562560,0.00,12.0,49.0,0,1,0,0.0
Status,1719418151000,43,16,3,24,1603124990,0.00,234.0,30.0,0,1,1,0.0
Status,1719418151000,43,17,3,17,1604249980,0.00,298.0,30.0,0,1,0,0.0
Status,1719418151000,43,18,3,8,1605374980,0.00,73.0,17.0,0,1,1,0.0
Status,1719418151000,43,19,5,2,1561097980,0.00,115.0,26.0,0,1,0,0.0
Status,1719418151000,43,20,5,3,1561097980,0.00,98.0,2.0,0,1,0,0.0
Status,1719418151000,43,21,5,5,1561097980,0.00,140.0,44.0,0,1,0,0.0
Status,1719418151000,43,22,5,6,1561097980,0.00,43.0,26.0,0,1,0,0.0
Status,1719418151000,43,23,5,9,1561097980,0.00,45.0,43.0,0,1,0,0.0
Status,1719418151000,43,24,5,13,1561097980,0.00,135.0,8.0,0,1,0,0.0
Status,1719418151000,43,25,5,16,1561097980,0.00,42.0,24.0,0,1,0,0.0
Status,1719418151000,43,26,5,19,1561097980,0.00,334.0,56.0,0,1,0,0.0
Status,1719418151000,43,27,5,20,1561097980,0.00,68.0,47.0,0,1,1,0.0
Status,1719418151000,43,28,5,22,1561097980,0.00,293.0,14.0,0,1,0,0.0
Status,1719418151000,43,29,5,29,1561097980,0.00,209.0,11.0,0,1,1,0.0
Status,1719418151000,43,30,5,32,1561097980,0.00,98.0,1.0,0,1,0,0.0
Status,1719418151000,43,31,5,35,1561097980,0.00,267.0,21.0,0,1,1,0.0
Status,1719418151000,43,32,5,36,1561097980,0.00,182.0,21.0,0,1,0,0.0
Status,1719418151000,43,33,5,37,1561097980,0.00,54.0,30.0,0,1,0,0.0
Status,1719418151000,43,34,6,4,1575420030,0.00,265.0,19.0,0,1,0,0.0
Status,1719418151000,43,35,6,10,1575420030,0.00,306.0,34.0,0,1,0,0.0
Status,1719418151000,43,36,6,11,1575420030,0.00,323.0,11.0,0,1,0,0.0
Status,1719418151000,43,37,6,12,1575420030,0.00,279.0,50.0,0,1,0,0.0
Status,1719418151000,43,38,6,19,1575420030,0.00,327.0,63.0,0,1,0,0.0
Status,1719418151000,43,39,6,21,1575420030,0.00,129.0,18.0,0,1,0,0.0
Status,1719418151000,43,40,6,26,1575420030,0.00,163.0,2.0,0,1,0,0.0
Status,1719418151000,43,41,6,27,1575420030,0.00,75.0,18.0,0,1,0,0.0
Status,1719418151000,43,42,6,33,1575420030,0.00,192.0,40.0,0,1,1,0.0
Raw,1719418151446,285234178000000,18,,-1403168135268768927,0.3199119567871094,304.58741821348667,-3.6003300082978313,15.019234146138002,60,2,0.0,16399,317369367030532,662,27.5,628.11181640625,3.197000026702881,16,0.0,0.0,1575420030,,,,0,,1,-2.36,24.1,0.0,0.0,,,C,294380754557332
Raw,1719418151446,285234178000000,18,,-1403168135268768927,0.3199119567871094,304.58741821348667,-3.6003300082978313,15.019234146138002,60,3,0.0,16399,317369378640769,663,27.9,153.91903686523438,3.2135000228881836,16,0.0,0.0,1575420030,,,,0,,1,-2.36,24.5,0.0,0.0,,,C,294380754557332
Raw,1719418151446,285234178000000,18,,-1403168135268768927,0.3199119567871094,304.58741821348667,-3.6003300082978313,15.019234146138002,60,4,0.0,16399,317369378049798,663,27.9,73.96715545654297,3.2135000228881836,16,0.0,0.0,1575420030,,,,0,,1,-2.36,24.5,0.0,0.0,,,C,294380754557332
Raw,1719418151446,285234178000000,18,,-1403168135268768927,0.3199119567871094,304.58741821348667,-3.6003300082978313,15.019234146138002,60,6,0.0,16399,317369370507078,663,27.4,-364.9071350097656,3.201500177383423,16,0.0,0.0,1575420030,,,,0,,1,-2.36,24.0,0.0,0.0,,,C,294380754557332
Raw,1719418151446,285234178000000,18,,-1403168135268768927,0.3199119567871094,304.58741821348667,-3.6003300082978313,15.019234146138002,60,7,0.0,16399,317369369284213,576,28.4,-566.9990234375,3.119999885559082,16,0.0,0.0,1575420030,,,,0,,1,-2.36,25.0,0.0,0.0,,,C,294380754557332
Raw,1719418151446,285234178000000,18,,-1403168135268768927,0.3199119567871094,304.58741821348667,-3.6003300082978313,15.019234146138002,60,9,0.0,16399,317369374732992,663,27.8,-286.33489990234375,3.2074999809265137,16,0.0,0.0,1575420030,,,,0,,1,-2.36,24.400000000000002,0.0,0.0,,,C,294380754557332
Raw,1719418151446,285234178000000,18,,-1403168135268768927,0.3199119567871094,304.58741821348667,-3.6003300082978313,15.019234146138002,60,16,0.0,16399,317369368148976,564,28.5,-409.8450012207031,1.753499984741211,16,0.0,0.0,1575420030,,,,0,,1,-2.36,25.1,0.0,0.0,,,C,294380754557332
Raw,1719418151446,285234178000000,18,,-1403168135268768927,0.3199119567871094,304.58741821348667,-3.6003300082978313,15.019234146138002,60,17,0.0,16399,317369361936362,662,27.2,362.84246826171875,3.188000202178955,16,0.0,0.0,1575420030,,,,0,,1,-2.36,23.8,0.0,0.0,,,C,294380754557332
Raw,1719418151446,285234178000000,18,,-1403168135268768927,0.3199119567871094,304.58741821348667,-3.6003300082978313,15.019234146138002,60,19,0.0,16399,317369363448775,662,27.8,346.8292236328125,3.19100022315979,16,0.0,0.0,1575420030,,,,0,,1,-2.36,24.400000000000002,0.0,0.0,,,C,294380754557332
Raw,1719418151446,285234178000000,18,,-1403168135268768927,0.3199119567871094,304.58741821348667,-3.6003300082978313,15.019234146138002,60,21,0.0,16399,317369363206673,662,27.3,590.86181640625,3.19100022315979,16,0.0,0.0,1575420030,,,,0,,1,-2.36,23.900000000000002,0.0,0.0,,,C,294380754557332
Raw,1719418151446,285234178000000,18,,-1403168135268768927,0.3199119567871094,304.58741821348667,-3.6003300082978313,15.019234146138002,60,26,0.0,16399,317369368133144,662,27.9,54.72846221923828,3.198500156402588,16,0.0,0.0,1575420030,,,,0,,1,-2.36,24.5,0.0,0.0,,,C,294380754557332
Raw,1719418151446,285234178000000,18,,-1403168135268768927,0.3199119567871094,304.58741821348667,-3.6003300082978313,15.019234146138002,60,31,0.0,16399,317369367636855,576,28.0,657.2743530273438,3.117000102996826,16,0.0,0.0,1575420030,,,,0,,1,-2.36,24.6,0.0,0.0,,,C,294380754557332
Fix,GPS,33.8182581800,35.4907953600,192.1383056640625,0.0,3.7900925,,1719418152000,0.22203603,,294394889032228,2.944018,0,,,
Fix,FLP,33.8182582000,35.4907954000,697.5000610351562,0.0000000000000111806486,5.107,,1719418151886,0.22203603,,294394889032228,18.5573,0,,,
Status,1719418152000,43,0,1,2,1575420030,24.50,180.0,18.0,1,1,1,19.5
Status,1719418152000,43,1,1,3,1575420030,24.60,88.0,66.0,1,1,1,19.6
Status,1719418152000,43,2,1,4,1575420030,24.70,354.0,63.0,1,1,1,19.7
Status,1719418152000,43,3,1,6,1575420030,24.60,307.0,28.0,1,1,1,19.6
Status,1719418152000,43,4,1,7,1575420030,29.40,209.0,26.0,1,1,1,24.4
Status,1719418152000,43,5,1,9,1575420030,24.70,286.0,44.0,1,1,1,19.7
Status,1719418152000,43,6,1,16,1575420030,25.40,105.0,18.0,1,1,1,20.4
Status,1719418152000,43,7,1,17,1575420030,24.40,248.0,1.0,0,1,1,19.4
Status,1719418152000,43,8,1,19,1575420030,24.80,270.0,3.0,0,1,1,19.8
Status,1719418152000,43,9,1,21,1575420030,24.50,171.0,7.0,1,1,1,19.5
Status,1719418152000,43,10,1,26,1575420030,28.30,66.0,18.0,1,1,1,23.3
Status,1719418152000,43,11,1,31,1575420030,24.60,42.0,18.0,1,1,1,19.6
Status,1719418152000,43,12,3,2,1599750020,0.00,307.0,28.0,0,1,0,0.0
Status,1719418152000,43,13,3,12,1601437440,0.00,157.0,26.0,0,1,1,0.0
Status,1719418152000,43,14,3,11,1602000000,0.00,84.0,46.0,0,1,1,0.0
Status,1719418152000,43,15,3,1,1602562560,0.00,12.0,49.0,0,1,0,0.0
Status,1719418152000,43,16,3,24,1603124990,0.00,234.0,30.0,0,1,1,0.0
Status,1719418152000,43,17,3,17,1604249980,0.00,298.0,30.0,0,1,0,0.0
Status,1719418152000,43,18,3,8,1605374980,0.00,73.0,17.0,0,1,1,0.0
Status,1719418152000,43,19,5,2,1561097980,0.00,115.0,26.0,0,1,0,0.0
Status,1719418152000,43,20,5,3,1561097980,0.00,98.0,2.0,0,1,0,0.0
Status,1719418152000,43,21,5,5,1561097980,0.00,140.0,44.0,0,1,0,0.0
Status,1719418152000,43,22,5,6,1561097980,0.00,43.0,26.0,0,1,0,0.0
Status,1719418152000,43,23,5,9,1561097980,0.00,45.0,43.0,0,1,0,0.0
Status,1719418152000,43,24,5,13,1561097980,0.00,135.0,8.0,0,1,0,0.0
Status,1719418152000,43,25,5,16,1561097980,0.00,42.0,24.0,0,1,0,0.0
Status,1719418152000,43,26,5,19,1561097980,0.00,334.0,56.0,0,1,0,0.0
Status,1719418152000,43,27,5,20,1561097980,0.00,68.0,47.0,0,1,1,0.0
Status,1719418152000,43,28,5,22,1561097980,0.00,293.0,14.0,0,1,0,0.0
Status,1719418152000,43,29,5,29,1561097980,0.00,209.0,11.0,0,1,1,0.0
Status,1719418152000,43,30,5,32,1561097980,0.00,98.0,1.0,0,1,0,0.0
Status,1719418152000,43,31,5,35,1561097980,0.00,267.0,21.0,0,1,1,0.0
Status,1719418152000,43,32,5,36,1561097980,0.00,182.0,21.0,0,1,0,0.0
Status,1719418152000,43,33,5,37,1561097980,0.00,54.0,30.0,0,1,0,0.0
Status,1719418152000,43,34,6,4,1575420030,0.00,265.0,19.0,0,1,0,0.0
Status,1719418152000,43,35,6,10,1575420030,0.00,306.0,34.0,0,1,0,0.0
Status,1719418152000,43,36,6,11,1575420030,0.00,323.0,11.0,0,1,0,0.0
Status,1719418152000,43,37,6,12,1575420030,0.00,279.0,50.0,0,1,0,0.0
Status,1719418152000,43,38,6,19,1575420030,0.00,327.0,63.0,0,1,0,0.0
Status,1719418152000,43,39,6,21,1575420030,0.00,129.0,18.0,0,1,0,0.0
Status,1719418152000,43,40,6,26,1575420030,0.00,163.0,2.0,0,1,0,0.0
Status,1719418152000,43,41,6,27,1575420030,0.00,75.0,18.0,0,1,0,0.0
Status,1719418152000,43,42,6,33,1575420030,0.00,192.0,40.0,0,1,1,0.0
Raw,1719418152446,285235178000000,18,,-1403168135268768931,0.10288333892822266,233.90418209601194,-4.6436280023513765,16.298048780440595,60,2,0.0,16399,317370367028443,673,27.9,627.9119873046875,3.947000026702881,16,0.0,0.0,1575420030,,,,0,,1,-1.83,24.5,0.0,0.0,,,C,294381752097800
Raw,1719418152446,285235178000000,18,,-1403168135268768931,0.10288333892822266,233.90418209601194,-4.6436280023513765,16.298048780440595,60,3,0.0,16399,317370378640246,587,28.0,154.00466918945312,3.883500099182129,16,0.0,0.0,1575420030,,,,0,,1,-1.83,24.6,0.0,0.0,,,C,294381752097800
Raw,1719418152446,285235178000000,18,,-1403168135268768931,0.10288333892822266,233.90418209601194,-4.6436280023513765,16.298048780440595,60,4,0.0,16399,317370378049584,587,28.1,73.36772918701172,3.883500099182129,16,0.0,0.0,1575420030,,,,0,,1,-1.83,24.700000000000003,0.0,0.0,,,C,294381752097800
Raw,1719418152446,285235178000000,18,,-1403168135268768931,0.10288333892822266,233.90418209601194,-4.6436280023513765,16.298048780440595,60,6,0.0,16399,317370370508305,587,28.0,-365.0213317871094,3.871500015258789,16,0.0,0.0,1575420030,,,,0,,1,-1.83,24.6,0.0,0.0,,,C,294381752097800
Raw,1719418152446,285235178000000,18,,-1403168135268768931,0.10288333892822266,233.90418209601194,-4.6436280023513765,16.298048780440595,60,7,0.0,16399,317370369286050,27,32.8,-567.8458251953125,1.2350000143051147,16,0.0,0.0,1575420030,,,,0,,1,-1.83,29.4,0.0,0.0,,,C,294381752097800
Raw,1719418152446,285235178000000,18,,-1403168135268768931,0.10288333892822266,233.90418209601194,-4.6436280023513765,16.298048780440595,60,9,0.0,16399,317370374733942,587,28.1,-286.7630615234375,3.877500057220459,16,0.0,0.0,1575420030,,,,0,,1,-1.83,24.700000000000003,0.0,0.0,,,C,294381752097800
Raw,1719418152446,285235178000000,18,,-1403168135268768931,0.10288333892822266,233.90418209601194,-4.6436280023513765,16.298048780440595,60,16,0.0,16399,317370368150353,570,28.8,-410.12091064453125,2.503499984741211,16,0.0,0.0,1575420030,,,,0,,1,-1.83,25.400000000000002,0.0,0.0,,,C,294381752097800
Raw,1719418152446,285235178000000,18,,-1403168135268768931,0.10288333892822266,233.90418209601194,-4.6436280023513765,16.298048780440595,60,17,0.0,16399,317370361935153,673,27.8,362.6426696777344,3.938000202178955,16,0.0,0.0,1575420030,,,,0,,1,-1.83,24.400000000000002,0.0,0.0,,,C,294381752097800
Raw,1719418152446,285235178000000,18,,-1403168135268768931,0.10288333892822266,233.90418209601194,-4.6436280023513765,16.298048780440595,60,19,0.0,16399,317370363447637,53,28.2,346.5247802734375,3.8610000610351562,16,0.0,0.0,1575420030,,,,0,,1,-1.83,24.8,0.0,0.0,,,C,294381752097800
Raw,1719418152446,285235178000000,18,,-1403168135268768931,0.10288333892822266,233.90418209601194,-4.6436280023513765,16.298048780440595,60,21,0.0,16399,317370363204680,673,27.9,590.7667236328125,3.94100022315979,16,0.0,0.0,1575420030,,,,0,,1,-1.83,24.5,0.0,0.0,,,C,294381752097800
Raw,1719418152446,285235178000000,18,,-1403168135268768931,0.10288333892822266,233.90418209601194,-4.6436280023513765,16.298048780440595,60,26,0.0,16399,317370368132918,31,31.7,55.65138626098633,1.2964999675750732,16,0.0,0.0,1575420030,,,,0,,1,-1.83,28.3,0.0,0.0,,,C,294381752097800
Raw,1719418152446,285235178000000,18,,-1403168135268768931,0.10288333892822266,233.90418209601194,-4.6436280023513765,16.298048780440595,60,31,0.0,16399,317370367634680,587,28.0,657.188720703125,3.867000102996826,16,0.0,0.0,1575420030,,,,0,,1,-1.83,24.6,0.0,0.0,,,C,294381752097800
Fix,GPS,33.8182581800,35.4907953700,192.13824462890625,0.0,3.7900925,,1719418153000,0.15811388,,294395892310196,2.6274958,0,,,
Fix,FLP,33.8182582000,35.4907954000,697.5000610351562,0.000000000000003664191,3.9,,1719418152889,0.15811388,,294395892310196,18.567333,0,,,
Status,1719418153000,43,0,1,2,1575420030,28.00,180.0,18.0,1,1,1,23.0
Status,1719418153000,43,1,1,3,1575420030,27.60,88.0,66.0,1,1,1,22.6
Status,1719418153000,43,2,1,4,1575420030,27.00,354.0,63.0,1,1,1,22.0
Status,1719418153000,43,3,1,6,1575420030,27.00,307.0,28.0,1,1,1,22.0
Status,1719418153000,43,4,1,7,1575420030,27.60,209.0,26.0,1,1,1,22.6
Status,1719418153000,43,5,1,9,1575420030,28.40,286.0,44.0,1,1,1,23.4
Status,1719418153000,43,6,1,16,1575420030,26.90,105.0,18.0,1,1,1,21.9
Status,1719418153000,43,7,1,17,1575420030,27.50,248.0,1.0,0,1,1,22.5
Status,1719418153000,43,8,1,19,1575420030,27.60,270.0,3.0,0,1,1,22.6
Status,1719418153000,43,9,1,21,1575420030,27.90,171.0,7.0,1,1,1,22.9
Status,1719418153000,43,10,1,26,1575420030,26.80,66.0,18.0,1,1,1,21.8
Status,1719418153000,43,11,1,31,1575420030,26.20,42.0,18.0,1,1,1,21.2
Status,1719418153000,43,12,3,2,1599750020,0.00,307.0,28.0,0,1,0,0.0
Status,1719418153000,43,13,3,12,1601437440,0.00,157.0,26.0,0,1,1,0.0
Status,1719418153000,43,14,3,11,1602000000,0.00,84.0,46.0,0,1,1,0.0
Status,1719418153000,43,15,3,1,1602562560,0.00,12.0,49.0,0,1,0,0.0
Status,1719418153000,43,16,3,24,1603124990,0.00,234.0,30.0,0,1,1,0.0
Status,1719418153000,43,17,3,17,1604249980,0.00,298.0,30.0,0,1,0,0.0
Status,1719418153000,43,18,3,8,1605374980,0.00,73.0,17.0,0,1,1,0.0
Status,1719418153000,43,19,5,2,1561097980,0.00,115.0,26.0,0,1,0,0.0
Status,1719418153000,43,20,5,3,1561097980,0.00,98.0,2.0,0,1,0,0.0
Status,1719418153000,43,21,5,5,1561097980,0.00,140.0,44.0,0,1,0,0.0
Status,1719418153000,43,22,5,6,1561097980,0.00,43.0,26.0,0,1,0,0.0
Status,1719418153000,43,23,5,9,1561097980,0.00,45.0,43.0,0,1,0,0.0
Status,1719418153000,43,24,5,13,1561097980,0.00,135.0,8.0,0,1,0,0.0
Status,1719418153000,43,25,5,16,1561097980,0.00,42.0,24.0,0,1,0,0.0
Status,1719418153000,43,26,5,19,1561097980,0.00,334.0,56.0,0,1,0,0.0
Status,1719418153000,43,27,5,20,1561097980,0.00,68.0,47.0,0,1,1,0.0
Status,1719418153000,43,28,5,22,1561097980,0.00,293.0,14.0,0,1,0,0.0
Status,1719418153000,43,29,5,29,1561097980,0.00,209.0,11.0,0,1,1,0.0
Status,1719418153000,43,30,5,32,1561097980,0.00,98.0,1.0,0,1,0,0.0
Status,1719418153000,43,31,5,35,1561097980,0.00,267.0,21.0,0,1,1,0.0
Status,1719418153000,43,32,5,36,1561097980,0.00,182.0,21.0,0,1,0,0.0
Status,1719418153000,43,33,5,37,1561097980,0.00,54.0,30.0,0,1,0,0.0
Status,1719418153000,43,34,6,4,1575420030,0.00,265.0,19.0,0,1,0,0.0
Status,1719418153000,43,35,6,10,1575420030,0.00,306.0,34.0,0,1,0,0.0
Status,1719418153000,43,36,6,11,1575420030,0.00,323.0,11.0,0,1,0,0.0
Status,1719418153000,43,37,6,12,1575420030,0.00,279.0,50.0,0,1,0,0.0
Status,1719418153000,43,38,6,19,1575420030,0.00,327.0,63.0,0,1,0,0.0
Status,1719418153000,43,39,6,21,1575420030,0.00,129.0,18.0,0,1,0,0.0
Status,1719418153000,43,40,6,26,1575420030,0.00,163.0,2.0,0,1,0,0.0
Status,1719418153000,43,41,6,27,1575420030,0.00,75.0,18.0,0,1,0,0.0
Status,1719418153000,43,42,6,33,1575420030,0.00,192.0,40.0,0,1,1,0.0
Raw,1719418153446,285236178000000,18,,-1403168135268768908,0.2443866729736328,60.201811720617115,-5.237950965681912,15.464191030844441,60,2,0.0,16399,317371367026360,31,31.4,627.6551513671875,0.9229999780654907,16,0.0,0.0,1575420030,,,,0,,1,0.89,28.0,0.0,0.0,,,C,294382759016759
Raw,1719418153446,285236178000000,18,,-1403168135268768908,0.2443866729736328,60.201811720617115,-5.237950965681912,15.464191030844441,60,3,0.0,16399,317371378639773,35,31.0,155.0132293701172,0.906499981880188,16,0.0,0.0,1575420030,,,,0,,1,0.89,27.6,0.0,0.0,,,C,294382759016759
Raw,1719418153446,285236178000000,18,,-1403168135268768908,0.2443866729736328,60.201811720617115,-5.237950965681912,15.464191030844441,60,4,0.0,16399,317371378049312,35,30.4,73.11083221435547,0.9664999842643738,16,0.0,0.0,1575420030,,,,0,,1,0.89,27.0,0.0,0.0,,,C,294382759016759
Raw,1719418153446,285236178000000,18,,-1403168135268768908,0.2443866729736328,60.201811720617115,-5.237950965681912,15.464191030844441,60,6,0.0,16399,317371370509536,35,30.4,-365.820556640625,0.9785000085830688,16,0.0,0.0,1575420030,,,,0,,1,0.89,27.0,0.0,0.0,,,C,294382759016759
Raw,1719418153446,285236178000000,18,,-1403168135268768908,0.2443866729736328,60.201811720617115,-5.237950965681912,15.464191030844441,60,7,0.0,16399,317371369287960,35,31.0,-567.7982788085938,0.7400000095367432,16,0.0,0.0,1575420030,,,,0,,1,0.89,27.6,0.0,0.0,,,C,294382759016759
Raw,1719418153446,285236178000000,18,,-1403168135268768908,0.2443866729736328,60.201811720617115,-5.237950965681912,15.464191030844441,60,9,0.0,16399,317371374734963,31,31.8,-287.6288757324219,0.9125000238418579,16,0.0,0.0,1575420030,,,,0,,1,0.89,28.400000000000002,0.0,0.0,,,C,294382759016759
Raw,1719418153446,285236178000000,18,,-1403168135268768908,0.2443866729736328,60.201811720617115,-5.237950965681912,15.464191030844441,60,16,0.0,16399,317371368151746,40,30.3,-409.5500183105469,1.1015000343322754,16,0.0,0.0,1575420030,,,,0,,1,0.89,26.900000000000002,0.0,0.0,,,C,294382759016759
Raw,1719418153446,285236178000000,18,,-1403168135268768908,0.2443866729736328,60.201811720617115,-5.237950965681912,15.464191030844441,60,17,0.0,16399,317371361934094,35,30.9,362.2430114746094,0.9919999837875366,16,0.0,0.0,1575420030,,,,0,,1,0.89,27.5,0.0,0.0,,,C,294382759016759
Raw,1719418153446,285236178000000,18,,-1403168135268768908,0.2443866729736328,60.201811720617115,-5.237950965681912,15.464191030844441,60,19,0.0,16399,317371363446517,35,31.0,345.92535400390625,0.8659999966621399,16,0.0,0.0,1575420030,,,,0,,1,0.89,27.6,0.0,0.0,,,C,294382759016759
Raw,1719418153446,285236178000000,18,,-1403168135268768908,0.2443866729736328,60.201811720617115,-5.237950965681912,15.464191030844441,60,21,0.0,16399,317371363202773,35,31.3,589.7105712890625,0.9290000200271606,16,0.0,0.0,1575420030,,,,0,,1,0.89,27.900000000000002,0.0,0.0,,,C,294382759016759
Raw,1719418153446,285236178000000,18,,-1403168135268768908,0.2443866729736328,60.201811720617115,-5.237950965681912,15.464191030844441,60,26,0.0,16399,317371368132792,40,30.2,54.50010681152344,0.7985000014305115,16,0.0,0.0,1575420030,,,,0,,1,0.89,26.8,0.0,0.0,,,C,294382759016759
Raw,1719418153446,285236178000000,18,,-1403168135268768908,0.2443866729736328,60.201811720617115,-5.237950965681912,15.464191030844441,60,31,0.0,16399,317371367632520,40,29.6,657.464599609375,1.0429999828338623,16,0.0,0.0,1575420030,,,,0,,1,0.89,26.200000000000003,0.0,0.0,,,C,294382759016759
Fix,GPS,33.8182581800,35.4907953700,192.1375732421875,0.0,3.7900925,,1719418154000,0.12041595,,294396885921237,2.830471,0,,,
Fix,FLP,33.8182582000,35.4907954000,697.5000610351562,0.0000000000000011281677,3.9,,1719418153882,0.12041595,,294396885921237,18.577269,0,,,
Status,1719418154000,43,0,1,2,1575420030,25.60,180.0,18.0,1,1,1,20.6
Status,1719418154000,43,1,1,3,1575420030,25.80,88.0,66.0,1,1,1,20.8
Status,1719418154000,43,2,1,4,1575420030,26.30,354.0,63.0,1,1,1,21.3
Status,1719418154000,43,3,1,6,1575420030,26.60,307.0,28.0,1,1,1,21.6
Status,1719418154000,43,4,1,7,1575420030,25.90,209.0,26.0,1,1,1,20.9
Status,1719418154000,43,5,1,9,1575420030,26.20,286.0,44.0,1,1,1,21.2
Status,1719418154000,43,6,1,16,1575420030,26.00,105.0,18.0,1,1,1,21.0
Status,1719418154000,43,7,1,17,1575420030,26.70,248.0,1.0,0,1,1,21.7
Status,1719418154000,43,8,1,19,1575420030,26.60,270.0,3.0,0,1,1,21.6
Status,1719418154000,43,9,1,21,1575420030,26.90,171.0,7.0,1,1,1,21.9
Status,1719418154000,43,10,1,26,1575420030,26.10,66.0,18.0,1,1,1,21.1
Status,1719418154000,43,11,1,31,1575420030,27.10,42.0,18.0,1,1,1,22.1
Status,1719418154000,43,12,3,2,1599750020,0.00,307.0,28.0,0,1,0,0.0
Status,1719418154000,43,13,3,12,1601437440,0.00,157.0,26.0,0,1,1,0.0
Status,1719418154000,43,14,3,11,1602000000,0.00,84.0,46.0,0,1,1,0.0
Status,1719418154000,43,15,3,1,1602562560,0.00,12.0,49.0,0,1,0,0.0
Status,1719418154000,43,16,3,24,1603124990,0.00,234.0,30.0,0,1,1,0.0
Status,1719418154000,43,17,3,17,1604249980,0.00,298.0,30.0,0,1,0,0.0
Status,1719418154000,43,18,3,8,1605374980,0.00,73.0,17.0,0,1,1,0.0
Status,1719418154000,43,19,5,2,1561097980,0.00,115.0,26.0,0,1,0,0.0
Status,1719418154000,43,20,5,3,1561097980,0.00,98.0,2.0,0,1,0,0.0
Status,1719418154000,43,21,5,5,1561097980,0.00,140.0,44.0,0,1,0,0.0
Status,1719418154000,43,22,5,6,1561097980,0.00,43.0,26.0,0,1,0,0.0
Status,1719418154000,43,23,5,9,1561097980,0.00,45.0,43.0,0,1,0,0.0
Status,1719418154000,43,24,5,13,1561097980,0.00,135.0,8.0,0,1,0,0.0
Status,1719418154000,43,25,5,16,1561097980,0.00,42.0,24.0,0,1,0,0.0
Status,1719418154000,43,26,5,19,1561097980,0.00,334.0,56.0,0,1,0,0.0
Status,1719418154000,43,27,5,20,1561097980,0.00,68.0,47.0,0,1,1,0.0
Status,1719418154000,43,28,5,22,1561097980,0.00,293.0,14.0,0,1,0,0.0
Status,1719418154000,43,29,5,29,1561097980,0.00,209.0,11.0,0,1,1,0.0
Status,1719418154000,43,30,5,32,1561097980,0.00,98.0,1.0,0,1,0,0.0
Status,1719418154000,43,31,5,35,1561097980,0.00,267.0,21.0,0,1,1,0.0
Status,1719418154000,43,32,5,36,1561097980,0.00,182.0,21.0,0,1,0,0.0
Status,1719418154000,43,33,5,37,1561097980,0.00,54.0,30.0,0,1,0,0.0
Status,1719418154000,43,34,6,4,1575420030,0.00,265.0,19.0,0,1,0,0.0
Status,1719418154000,43,35,6,10,1575420030,0.00,306.0,34.0,0,1,0,0.0
Status,1719418154000,43,36,6,11,1575420030,0.00,323.0,11.0,0,1,0,0.0
Status,1719418154000,43,37,6,12,1575420030,0.00,279.0,50.0,0,1,0,0.0
Status,1719418154000,43,38,6,19,1575420030,0.00,327.0,63.0,0,1,0,0.0
Status,1719418154000,43,39,6,21,1575420030,0.00,129.0,18.0,0,1,0,0.0
Status,1719418154000,43,40,6,26,1575420030,0.00,163.0,2.0,0,1,0,0.0
Status,1719418154000,43,41,6,27,1575420030,0.00,75.0,18.0,0,1,0,0.0
Status,1719418154000,43,42,6,33,1575420030,0.00,192.0,40.0,0,1,1,0.0
Raw,1719418154446,285237178000000,18,,-1403168135268768955,0.3802347183227539,39.61562106269412,-7.411576696101004,15.874963652636229,60,2,0.0,16399,317372367024208,46,29.0,627.8739624023438,0.8569999933242798,16,0.0,0.0,1575420030,,,,0,,1,0.58,25.6,0.0,0.0,,,C,294383754702696
Raw,1719418154446,285237178000000,18,,-1403168135268768955,0.3802347183227539,39.61562106269412,-7.411576696101004,15.874963652636229,60,3,0.0,16399,317372378639175,46,29.2,155.412841796875,0.8734999895095825,16,0.0,0.0,1575420030,,,,0,,1,0.58,25.8,0.0,0.0,,,C,294383754702696
Raw,1719418154446,285237178000000,18,,-1403168135268768955,0.3802347183227539,39.61562106269412,-7.411576696101004,15.874963652636229,60,4,0.0,16399,317372378049158,40,29.7,73.52947235107422,0.8734999895095825,16,0.0,0.0,1575420030,,,,0,,1,0.58,26.3,0.0,0.0,,,C,294383754702696
Raw,1719418154446,285237178000000,18,,-1403168135268768955,0.3802347183227539,39.61562106269412,-7.411576696101004,15.874963652636229,60,6,0.0,16399,317372370510766,40,30.0,-365.0118103027344,0.8014999628067017,16,0.0,0.0,1575420030,,,,0,,1,0.58,26.6,0.0,0.0,,,C,294383754702696
Raw,1719418154446,285237178000000,18,,-1403168135268768955,0.3802347183227539,39.61562106269412,-7.411576696101004,15.874963652636229,60,7,0.0,16399,317372369289876,46,29.3,-566.3805541992188,0.8600000143051147,16,0.0,0.0,1575420030,,,,0,,1,0.58,25.900000000000002,0.0,0.0,,,C,294383754702696
Raw,1719418154446,285237178000000,18,,-1403168135268768955,0.3802347183227539,39.61562106269412,-7.411576696101004,15.874963652636229,60,9,0.0,16399,317372374735870,40,29.6,-286.23974609375,0.8675000071525574,16,0.0,0.0,1575420030,,,,0,,1,0.58,26.200000000000003,0.0,0.0,,,C,294383754702696
Raw,1719418154446,285237178000000,18,,-1403168135268768955,0.3802347183227539,39.61562106269412,-7.411576696101004,15.874963652636229,60,16,0.0,16399,317372368153035,40,29.4,-410.4063415527344,0.8585000038146973,16,0.0,0.0,1575420030,,,,0,,1,0.58,26.0,0.0,0.0,,,C,294383754702696
Raw,1719418154446,285237178000000,18,,-1403168135268768955,0.3802347183227539,39.61562106269412,-7.411576696101004,15.874963652636229,60,17,0.0,16399,317372361932762,40,30.1,363.51800537109375,0.7879999876022339,16,0.0,0.0,1575420030,,,,0,,1,0.58,26.700000000000003,0.0,0.0,,,C,294383754702696
Raw,1719418154446,285237178000000,18,,-1403168135268768955,0.3802347183227539,39.61562106269412,-7.411576696101004,15.874963652636229,60,19,0.0,16399,317372363445361,40,30.0,346.60089111328125,0.7910000085830688,16,0.0,0.0,1575420030,,,,0,,1,0.58,26.6,0.0,0.0,,,C,294383754702696
Raw,1719418154446,285237178000000,18,,-1403168135268768955,0.3802347183227539,39.61562106269412,-7.411576696101004,15.874963652636229,60,21,0.0,16399,317372363200857,40,30.3,591.3375854492188,0.7910000085830688,16,0.0,0.0,1575420030,,,,0,,1,0.58,26.900000000000002,0.0,0.0,,,C,294383754702696
Raw,1719418154446,285237178000000,18,,-1403168135268768955,0.3802347183227539,39.61562106269412,-7.411576696101004,15.874963652636229,60,26,0.0,16399,317372368132619,40,29.5,55.09953689575195,0.8585000038146973,16,0.0,0.0,1575420030,,,,0,,1,0.58,26.1,0.0,0.0,,,C,294383754702696
Raw,1719418154446,285237178000000,18,,-1403168135268768955,0.3802347183227539,39.61562106269412,-7.411576696101004,15.874963652636229,60,31,0.0,16399,317372367630280,35,30.5,657.9498901367188,0.796999990940094,16,0.0,0.0,1575420030,,,,0,,1,0.58,27.1,0.0,0.0,,,C,294383754702696
Fix,GPS,33.8182581900,35.4907953700,192.13653564453125,0.0,3.7900925,,1719418155000,0.11313708,,294397883687331,3.3633773,0,,,
Fix,FLP,33.8182582000,35.4907954000,697.5000610351562,0.0000000000000003274989,3.9,,1719418154880,0.11313708,,294397883687331,18.587246,0,,,
Fix,NLP,32.0762016000,35.2661786000,697.5000610351562,,104.1,,1719418154002,,,294397005000000,20.729273,0,,,
Status,1719418155000,43,0,1,2,1575420030,25.90,180.0,18.0,1,1,1,20.9
Status,1719418155000,43,1,1,3,1575420030,25.20,88.0,66.0,1,1,1,20.2
Status,1719418155000,43,2,1,4,1575420030,24.60,354.0,63.0,1,1,1,19.6
Status,1719418155000,43,3,1,6,1575420030,25.50,307.0,28.0,1,1,1,20.5
Status,1719418155000,43,4,1,7,1575420030,25.80,209.0,26.0,1,1,1,20.8
Status,1719418155000,43,5,1,9,1575420030,26.20,286.0,44.0,1,1,1,21.2
Status,1719418155000,43,6,1,16,1575420030,25.80,105.0,18.0,1,1,1,20.8
Status,1719418155000,43,7,1,17,1575420030,25.20,248.0,1.0,0,1,1,20.2
Status,1719418155000,43,8,1,19,1575420030,25.70,270.0,3.0,0,1,1,20.7
Status,1719418155000,43,9,1,21,1575420030,27.10,171.0,7.0,1,1,1,22.1
Status,1719418155000,43,10,1,26,1575420030,23.90,66.0,18.0,1,1,1,18.9
Status,1719418155000,43,11,1,31,1575420030,25.30,42.0,18.0,1,1,1,20.3
Status,1719418155000,43,12,3,2,1599750020,0.00,307.0,28.0,0,1,0,0.0
Status,1719418155000,43,13,3,12,1601437440,0.00,157.0,26.0,0,1,1,0.0
Status,1719418155000,43,14,3,11,1602000000,0.00,84.0,46.0,0,1,1,0.0
Status,1719418155000,43,15,3,1,1602562560,0.00,12.0,49.0,0,1,0,0.0
Status,1719418155000,43,16,3,24,1603124990,0.00,234.0,30.0,0,1,1,0.0
Status,1719418155000,43,17,3,17,1604249980,0.00,298.0,30.0,0,1,0,0.0
Status,1719418155000,43,18,3,8,1605374980,0.00,73.0,17.0,0,1,1,0.0
Status,1719418155000,43,19,5,2,1561097980,0.00,115.0,26.0,0,1,0,0.0
Status,1719418155000,43,20,5,3,1561097980,0.00,98.0,2.0,0,1,0,0.0
Status,1719418155000,43,21,5,5,1561097980,0.00,140.0,44.0,0,1,0,0.0
Status,1719418155000,43,22,5,6,1561097980,0.00,43.0,26.0,0,1,0,0.0
Status,1719418155000,43,23,5,9,1561097980,0.00,45.0,43.0,0,1,0,0.0
Status,1719418155000,43,24,5,13,1561097980,0.00,135.0,8.0,0,1,0,0.0
Status,1719418155000,43,25,5,16,1561097980,0.00,42.0,24.0,0,1,0,0.0
Status,1719418155000,43,26,5,19,1561097980,0.00,334.0,56.0,0,1,0,0.0
Status,1719418155000,43,27,5,20,1561097980,0.00,68.0,47.0,0,1,1,0.0
Status,1719418155000,43,28,5,22,1561097980,0.00,293.0,14.0,0,1,0,0.0
Status,1719418155000,43,29,5,29,1561097980,0.00,209.0,11.0,0,1,1,0.0
Status,1719418155000,43,30,5,32,1561097980,0.00,98.0,1.0,0,1,0,0.0
Status,1719418155000,43,31,5,35,1561097980,0.00,267.0,21.0,0,1,1,0.0
Status,1719418155000,43,32,5,36,1561097980,0.00,182.0,21.0,0,1,0,0.0
Status,1719418155000,43,33,5,37,1561097980,0.00,54.0,30.0,0,1,0,0.0
Status,1719418155000,43,34,6,4,1575420030,0.00,265.0,19.0,0,1,0,0.0
Status,1719418155000,43,35,6,10,1575420030,0.00,306.0,34.0,0,1,0,0.0
Status,1719418155000,43,36,6,11,1575420030,0.00,323.0,11.0,0,1,0,0.0
Status,1719418155000,43,37,6,12,1575420030,0.00,279.0,50.0,0,1,0,0.0
Status,1719418155000,43,38,6,19,1575420030,0.00,327.0,63.0,0,1,0,0.0
Status,1719418155000,43,39,6,21,1575420030,0.00,129.0,18.0,0,1,0,0.0
Status,1719418155000,43,40,6,26,1575420030,0.00,163.0,2.0,0,1,0,0.0
Status,1719418155000,43,41,6,27,1575420030,0.00,75.0,18.0,0,1,0,0.0
Status,1719418155000,43,42,6,33,1575420030,0.00,192.0,40.0,0,1,1,0.0
Raw,1719418155446,285238178000000,18,,-1403168135268768962,0.7790203094482422,39.8280935769435,-5.245066722531643,15.520269318466898,60,2,0.0,16399,317373367022126,46,29.3,627.8359375,0.8569999933242798,16,0.0,0.0,1575420030,,,,0,,1,0.99,25.900000000000002,0.0,0.0,,,C,294384760190821
Raw,1719418155446,285238178000000,18,,-1403168135268768962,0.7790203094482422,39.8280935769435,-5.245066722531643,15.520269318466898,60,3,0.0,16399,317373378638682,46,28.6,154.7943878173828,0.9584999680519104,16,0.0,0.0,1575420030,,,,0,,1,0.99,25.200000000000003,0.0,0.0,,,C,294384760190821
Raw,1719418155446,285238178000000,18,,-1403168135268768962,0.7790203094482422,39.8280935769435,-5.245066722531643,15.520269318466898,60,4,0.0,16399,317373378048797,53,28.0,73.50093078613281,0.9584999680519104,16,0.0,0.0,1575420030,,,,0,,1,0.99,24.6,0.0,0.0,,,C,294384760190821
Raw,1719418155446,285238178000000,18,,-1403168135268768962,0.7790203094482422,39.8280935769435,-5.245066722531643,15.520269318466898,60,6,0.0,16399,317373370511931,46,28.9,-364.3838195800781,0.9465000033378601,16,0.0,0.0,1575420030,,,,0,,1,0.99,25.5,0.0,0.0,,,C,294384760190821
Raw,1719418155446,285238178000000,18,,-1403168135268768962,0.7790203094482422,39.8280935769435,-5.245066722531643,15.520269318466898,60,7,0.0,16399,317373369291741,46,29.2,-567.2368774414062,0.875,16,0.0,0.0,1575420030,,,,0,,1,0.99,25.8,0.0,0.0,,,C,294384760190821
Raw,1719418155446,285238178000000,18,,-1403168135268768962,0.7790203094482422,39.8280935769435,-5.245066722531643,15.520269318466898,60,9,0.0,16399,317373374736727,40,29.6,-287.1341247558594,0.8824999928474426,16,0.0,0.0,1575420030,,,,0,,1,0.99,26.200000000000003,0.0,0.0,,,C,294384760190821
Raw,1719418155446,285238178000000,18,,-1403168135268768962,0.7790203094482422,39.8280935769435,-5.245066722531643,15.520269318466898,60,16,0.0,16399,317373368154476,46,29.2,-409.29315185546875,0.8734999895095825,16,0.0,0.0,1575420030,,,,0,,1,0.99,25.8,0.0,0.0,,,C,294384760190821
Raw,1719418155446,285238178000000,18,,-1403168135268768962,0.7790203094482422,39.8280935769435,-5.245066722531643,15.520269318466898,60,17,0.0,16399,317373361931492,46,28.6,362.2715759277344,0.9179999828338623,16,0.0,0.0,1575420030,,,,0,,1,0.99,25.200000000000003,0.0,0.0,,,C,294384760190821
Raw,1719418155446,285238178000000,18,,-1403168135268768962,0.7790203094482422,39.8280935769435,-5.245066722531643,15.520269318466898,60,19,0.0,16399,317373363444167,46,29.1,347.2764587402344,0.8510000109672546,16,0.0,0.0,1575420030,,,,0,,1,0.99,25.700000000000003,0.0,0.0,,,C,294384760190821
Raw,1719418155446,285238178000000,18,,-1403168135268768962,0.7790203094482422,39.8280935769435,-5.245066722531643,15.520269318466898,60,21,0.0,16399,317373363198736,35,30.5,590.262451171875,0.7910000085830688,16,0.0,0.0,1575420030,,,,0,,1,0.99,27.1,0.0,0.0,,,C,294384760190821
Raw,1719418155446,285238178000000,18,,-1403168135268768962,0.7790203094482422,39.8280935769435,-5.245066722531643,15.520269318466898,60,26,0.0,16399,317373368132408,61,27.3,56.012943267822266,1.0234999656677246,16,0.0,0.0,1575420030,,,,0,,1,0.99,23.900000000000002,0.0,0.0,,,C,294384760190821
Raw,1719418155446,285238178000000,18,,-1403168135268768962,0.7790203094482422,39.8280935769435,-5.245066722531643,15.520269318466898,60,31,0.0,16399,317373367628235,46,28.7,657.5597534179688,0.9419999718666077,16,0.0,0.0,1575420030,,,,0,,1,0.99,25.3,0.0,0.0,,,C,294384760190821
Fix,GPS,33.8182581900,35.4907953800,192.1346435546875,0.0,3.7900925,,1719418156000,0.11313708,,294398887331757,3.966603,0,,,
Fix,FLP,33.8182582000,35.4907954000,697.5000610351562,0.000000000000000092607535,3.9,,1719418155884,0.11313708,,294398887331757,20.748096,0,,,
Status,1719418156000,43,0,1,2,1575420030,28.70,180.0,18.0,1,1,1,23.7
Status,1719418156000,43,1,1,3,1575420030,28.40,88.0,66.0,1,1,1,23.4
Status,1719418156000,43,2,1,4,1575420030,28.80,354.0,63.0,1,1,1,23.8
Status,1719418156000,43,3,1,6,1575420030,27.70,307.0,28.0,1,1,1,22.7
Status,1719418156000,43,4,1,7,1575420030,28.60,209.0,26.0,1,1,1,23.6
Status,1719418156000,43,5,1,9,1575420030,27.90,286.0,44.0,1,1,1,22.9
Status,1719418156000,43,6,1,16,1575420030,28.90,105.0,18.0,1,1,1,23.9
Status,1719418156000,43,7,1,17,1575420030,28.90,248.0,1.0,0,1,1,23.9
Status,1719418156000,43,8,1,19,1575420030,28.80,270.0,3.0,0,1,1,23.8
Status,1719418156000,43,9,1,21,1575420030,28.60,171.0,7.0,1,1,1,23.6
Status,1719418156000,43,10,1,26,1575420030,28.20,66.0,18.0,1,1,1,23.2
Status,1719418156000,43,11,1,31,1575420030,28.10,42.0,18.0,1,1,1,23.1
Status,1719418156000,43,12,3,2,1599750020,0.00,307.0,28.0,0,1,0,0.0
Status,1719418156000,43,13,3,12,1601437440,0.00,157.0,26.0,0,1,1,0.0
Status,1719418156000,43,14,3,11,1602000000,0.00,84.0,46.0,0,1,1,0.0
Status,1719418156000,43,15,3,1,1602562560,0.00,12.0,49.0,0,1,0,0.0
Status,1719418156000,43,16,3,24,1603124990,0.00,234.0,30.0,0,1,1,0.0
Status,1719418156000,43,17,3,17,1604249980,0.00,298.0,30.0,0,1,0,0.0
Status,1719418156000,43,18,3,8,1605374980,0.00,73.0,17.0,0,1,1,0.0
Status,1719418156000,43,19,5,2,1561097980,0.00,115.0,26.0,0,1,0,0.0
Status,1719418156000,43,20,5,3,1561097980,0.00,98.0,2.0,0,1,0,0.0
Status,1719418156000,43,21,5,5,1561097980,0.00,140.0,44.0,0,1,0,0.0
Status,1719418156000,43,22,5,6,1561097980,0.00,43.0,26.0,0,1,0,0.0
Status,1719418156000,43,23,5,9,1561097980,0.00,45.0,43.0,0,1,0,0.0
Status,1719418156000,43,24,5,13,1561097980,0.00,135.0,8.0,0,1,0,0.0
Status,1719418156000,43,25,5,16,1561097980,0.00,42.0,24.0,0,1,0,0.0
Status,1719418156000,43,26,5,19,1561097980,0.00,334.0,56.0,0,1,0,0.0
Status,1719418156000,43,27,5,20,1561097980,0.00,68.0,47.0,0,1,1,0.0
Status,1719418156000,43,28,5,22,1561097980,0.00,293.0,14.0,0,1,0,0.0
Status,1719418156000,43,29,5,29,1561097980,0.00,209.0,11.0,0,1,1,0.0
Status,1719418156000,43,30,5,32,1561097980,0.00,98.0,1.0,0,1,0,0.0
Status,1719418156000,43,31,5,35,1561097980,0.00,267.0,21.0,0,1,1,0.0
Status,1719418156000,43,32,5,36,1561097980,0.00,182.0,21.0,0,1,0,0.0
Status,1719418156000,43,33,5,37,1561097980,0.00,54.0,30.0,0,1,0,0.0
Status,1719418156000,43,34,6,4,1575420030,0.00,265.0,19.0,0,1,0,0.0
Status,1719418156000,43,35,6,10,1575420030,0.00,306.0,34.0,0,1,0,0.0
Status,1719418156000,43,36,6,11,1575420030,0.00,323.0,11.0,0,1,0,0.0
Status,1719418156000,43,37,6,12,1575420030,0.00,279.0,50.0,0,1,0,0.0
Status,1719418156000,43,38,6,19,1575420030,0.00,327.0,63.0,0,1,0,0.0
Status,1719418156000,43,39,6,21,1575420030,0.00,129.0,18.0,0,1,0,0.0
Status,1719418156000,43,40,6,26,1575420030,0.00,163.0,2.0,0,1,0,0.0
Status,1719418156000,43,41,6,27,1575420030,0.00,75.0,18.0,0,1,0,0.0
Status,1719418156000,43,42,6,33,1575420030,0.00,192.0,40.0,0,1,1,0.0
Raw,1719418156446,285239178000000,18,,-1403168135268768964,0.09681129455566406,43.92353366711177,-5.530030218328101,15.667120725600762,60,2,0.0,16399,317374367020095,31,32.1,627.6931762695312,0.6769999861717224,16,0.0,0.0,1575420030,,,,0,,1,1.37,28.700000000000003,0.0,0.0,,,C,294385758199205
Raw,1719418156446,285239178000000,18,,-1403168135268768964,0.09681129455566406,43.92353366711177,-5.530030218328101,15.667120725600762,60,3,0.0,16399,317374378638220,31,31.8,154.6231231689453,0.7534999847412109,16,0.0,0.0,1575420030,,,,0,,1,1.37,28.400000000000002,0.0,0.0,,,C,294385758199205
Raw,1719418156446,285239178000000,18,,-1403168135268768964,0.09681129455566406,43.92353366711177,-5.530030218328101,15.667120725600762,60,4,0.0,16399,317374378048626,31,32.2,72.62557983398438,0.6934999823570251,16,0.0,0.0,1575420030,,,,0,,1,1.37,28.800000000000004,0.0,0.0,,,C,294385758199205
Raw,1719418156446,285239178000000,18,,-1403168135268768964,0.09681129455566406,43.92353366711177,-5.530030218328101,15.667120725600762,60,6,0.0,16399,317374370513218,35,31.1,-365.1735534667969,0.7414999604225159,16,0.0,0.0,1575420030,,,,0,,1,1.37,27.700000000000003,0.0,0.0,,,C,294385758199205
Raw,1719418156446,285239178000000,18,,-1403168135268768964,0.09681129455566406,43.92353366711177,-5.530030218328101,15.667120725600762,60,7,0.0,16399,317374369293678,31,32.0,-567.360595703125,0.6799999475479126,16,0.0,0.0,1575420030,,,,0,,1,1.37,28.6,0.0,0.0,,,C,294385758199205
Raw,1719418156446,285239178000000,18,,-1403168135268768964,0.09681129455566406,43.92353366711177,-5.530030218328101,15.667120725600762,60,9,0.0,16399,317374374737766,35,31.3,-286.5156555175781,0.7475000023841858,16,0.0,0.0,1575420030,,,,0,,1,1.37,27.900000000000002,0.0,0.0,,,C,294385758199205
Raw,1719418156446,285239178000000,18,,-1403168135268768964,0.09681129455566406,43.92353366711177,-5.530030218328101,15.667120725600762,60,16,0.0,16399,317374368155854,31,32.3,-409.7403259277344,0.6784999966621399,16,0.0,0.0,1575420030,,,,0,,1,1.37,28.9,0.0,0.0,,,C,294385758199205
Raw,1719418156446,285239178000000,18,,-1403168135268768964,0.09681129455566406,43.92353366711177,-5.530030218328101,15.667120725600762,60,17,0.0,16399,317374361930374,31,32.3,362.6997375488281,0.6679999828338623,16,0.0,0.0,1575420030,,,,0,,1,1.37,28.9,0.0,0.0,,,C,294385758199205
Raw,1719418156446,285239178000000,18,,-1403168135268768964,0.09681129455566406,43.92353366711177,-5.530030218328101,15.667120725600762,60,19,0.0,16399,317374363443052,31,32.2,346.7150573730469,0.6710000038146973,16,0.0,0.0,1575420030,,,,0,,1,1.37,28.800000000000004,0.0,0.0,,,C,294385758199205
Raw,1719418156446,285239178000000,18,,-1403168135268768964,0.09681129455566406,43.92353366711177,-5.530030218328101,15.667120725600762,60,21,0.0,16399,317374363196924,31,32.0,590.0150756835938,0.6710000038146973,16,0.0,0.0,1575420030,,,,0,,1,1.37,28.6,0.0,0.0,,,C,294385758199205
Raw,1719418156446,285239178000000,18,,-1403168135268768964,0.09681129455566406,43.92353366711177,-5.530030218328101,15.667120725600762,60,26,0.0,16399,317374368132205,31,31.6,54.43350601196289,0.7384999990463257,16,0.0,0.0,1575420030,,,,0,,1,1.37,28.200000000000003,0.0,0.0,,,C,294385758199205
Raw,1719418156446,285239178000000,18,,-1403168135268768964,0.09681129455566406,43.92353366711177,-5.530030218328101,15.667120725600762,60,31,0.0,16399,317374367625913,31,31.5,657.6264038085938,0.7369999885559082,16,0.0,0.0,1575420030,,,,0,,1,1.37,28.1,0.0,0.0,,,C,294385758199205
Fix,GPS,33.8182581900,35.4907953800,192.13385009765625,0.0,3.7900925,,1719418157000,0.10630146,,294399887306340,4.243371,0,,,
Fix,FLP,33.8182582000,35.4907954000,697.5000610351562,0.000000000000000029809187,3.9,,1719418156884,0.10630146,,294399887306340,20.758097,0,,,
Status,1719418157000,43,0,1,2,1575420030,28.20,180.0,18.0,1,1,1,23.2
Status,1719418157000,43,1,1,3,1575420030,28.90,88.0,66.0,1,1,1,23.9
Status,1719418157000,43,2,1,4,1575420030,28.80,354.0,63.0,1,1,1,23.8
Status,1719418157000,43,3,1,6,1575420030,29.30,307.0,28.0,1,1,1,24.3
Status,1719418157000,43,4,1,7,1575420030,28.60,209.0,26.0,1,1,1,23.6
Status,1719418157000,43,5,1,9,1575420030,28.40,286.0,44.0,1,1,1,23.4
Status,1719418157000,43,6,1,16,1575420030,28.10,105.0,18.0,1,1,1,23.1
Status,1719418157000,43,7,1,17,1575420030,28.70,248.0,1.0,0,1,1,23.7
Status,1719418157000,43,8,1,19,1575420030,29.20,270.0,3.0,0,1,1,24.2
Status,1719418157000,43,9,1,21,1575420030,28.40,171.0,7.0,1,1,1,23.4
Status,1719418157000,43,10,1,26,1575420030,28.40,66.0,18.0,1,1,1,23.4
Status,1719418157000,43,11,1,31,1575420030,27.90,42.0,18.0,1,1,1,22.9
Status,1719418157000,43,12,3,2,1599750020,0.00,307.0,28.0,0,1,0,0.0
Status,1719418157000,43,13,3,12,1601437440,0.00,157.0,26.0,0,1,1,0.0
Status,1719418157000,43,14,3,11,1602000000,0.00,84.0,46.0,0,1,1,0.0
Status,1719418157000,43,15,3,1,1602562560,0.00,12.0,49.0,0,1,0,0.0
Status,1719418157000,43,16,3,24,1603124990,0.00,234.0,30.0,0,1,1,0.0
Status,1719418157000,43,17,3,17,1604249980,0.00,298.0,30.0,0,1,0,0.0
Status,1719418157000,43,18,3,8,1605374980,0.00,73.0,17.0,0,1,1,0.0
Status,1719418157000,43,19,5,2,1561097980,0.00,115.0,26.0,0,1,0,0.0
Status,1719418157000,43,20,5,3,1561097980,0.00,98.0,2.0,0,1,0,0.0
Status,1719418157000,43,21,5,5,1561097980,0.00,140.0,44.0,0,1,0,0.0
Status,1719418157000,43,22,5,6,1561097980,0.00,43.0,26.0,0,1,0,0.0
Status,1719418157000,43,23,5,9,1561097980,0.00,45.0,43.0,0,1,0,0.0
Status,1719418157000,43,24,5,13,1561097980,0.00,135.0,8.0,0,1,0,0.0
Status,1719418157000,43,25,5,16,1561097980,0.00,42.0,24.0,0,1,0,0.0
Status,1719418157000,43,26,5,19,1561097980,0.00,334.0,56.0,0,1,0,0.0
Status,1719418157000,43,27,5,20,1561097980,0.00,68.0,47.0,0,1,1,0.0
Status,1719418157000,43,28,5,22,1561097980,0.00,293.0,14.0,0,1,0,0.0
Status,1719418157000,43,29,5,29,1561097980,0.00,209.0,11.0,0,1,1,0.0
Status,1719418157000,43,30,5,32,1561097980,0.00,98.0,1.0,0,1,0,0.0
Status,1719418157000,43,31,5,35,1561097980,0.00,267.0,21.0,0,1,1,0.0
Status,1719418157000,43,32,5,36,1561097980,0.00,182.0,21.0,0,1,0,0.0
Status,1719418157000,43,33,5,37,1561097980,0.00,54.0,30.0,0,1,0,0.0
Status,1719418157000,43,34,6,4,1575420030,0.00,265.0,19.0,0,1,0,0.0
Status,1719418157000,43,35,6,10,1575420030,0.00,306.0,34.0,0,1,0,0.0
Status,1719418157000,43,36,6,11,1575420030,0.00,323.0,11.0,0,1,0,0.0
Status,1719418157000,43,37,6,12,1575420030,0.00,279.0,50.0,0,1,0,0.0
Status,1719418157000,43,38,6,19,1575420030,0.00,327.0,63.0,0,1,0,0.0
Status,1719418157000,43,39,6,21,1575420030,0.00,129.0,18.0,0,1,0,0.0
Status,1719418157000,43,40,6,26,1575420030,0.00,163.0,2.0,0,1,0,0.0
Status,1719418157000,43,41,6,27,1575420030,0.00,75.0,18.0,0,1,0,0.0
Status,1719418157000,43,42,6,33,1575420030,0.00,192.0,40.0,0,1,1,0.0
Raw,1719418157446,285240178000000,18,,-1403168135268768983,0.9471969604492188,42.39056943333708,-6.648726604952855,14.278568754090347,60,2,0.0,16399,317375367017958,31,31.6,627.9881591796875,0.7369999885559082,16,0.0,0.0,1575420030,,,,0,,1,2.84,28.200000000000003,0.0,0.0,,,C,294386757673112
Raw,1719418157446,285240178000000,18,,-1403168135268768983,0.9471969604492188,42.39056943333708,-6.648726604952855,14.278568754090347,60,3,0.0,16399,317375378637703,31,32.3,154.90855407714844,0.6934999823570251,16,0.0,0.0,1575420030,,,,0,,1,2.84,28.9,0.0,0.0,,,C,294386757673112
Raw,1719418157446,285240178000000,18,,-1403168135268768983,0.9471969604492188,42.39056943333708,-6.648726604952855,14.278568754090347,60,4,0.0,16399,317375378048391,31,32.2,73.83394622802734,0.6934999823570251,16,0.0,0.0,1575420030,,,,0,,1,2.84,28.800000000000004,0.0,0.0,,,C,294386757673112
Raw,1719418157446,285240178000000,18,,-1403168135268768983,0.9471969604492188,42.39056943333708,-6.648726604952855,14.278568754090347,60,6,0.0,16399,317375370514384,27,32.7,-364.6597595214844,0.6814999580383301,16,0.0,0.0,1575420030,,,,0,,1,2.84,29.300000000000004,0.0,0.0,,,C,294386757673112
Raw,1719418157446,285240178000000,18,,-1403168135268768983,0.9471969604492188,42.39056943333708,-6.648726604952855,14.278568754090347,60,7,0.0,16399,317375369295598,31,32.0,-567.31298828125,0.6799999475479126,16,0.0,0.0,1575420030,,,,0,,1,2.84,28.6,0.0,0.0,,,C,294386757673112
Raw,1719418157446,285240178000000,18,,-1403168135268768983,0.9471969604492188,42.39056943333708,-6.648726604952855,14.278568754090347,60,9,0.0,16399,317375374738782,31,31.8,-286.6964416503906,0.7475000023841858,16,0.0,0.0,1575420030,,,,0,,1,2.84,28.400000000000002,0.0,0.0,,,C,294386757673112
Raw,1719418157446,285240178000000,18,,-1403168135268768983,0.9471969604492188,42.39056943333708,-6.648726604952855,14.278568754090347,60,16,0.0,16399,317375368157192,31,31.5,-409.45489501953125,0.7384999990463257,16,0.0,0.0,1575420030,,,,0,,1,2.84,28.1,0.0,0.0,,,C,294386757673112
Raw,1719418157446,285240178000000,18,,-1403168135268768983,0.9471969604492188,42.39056943333708,-6.648726604952855,14.278568754090347,60,17,0.0,16399,317375361929146,31,32.1,362.9471130371094,0.6679999828338623,16,0.0,0.0,1575420030,,,,0,,1,2.84,28.700000000000003,0.0,0.0,,,C,294386757673112
Raw,1719418157446,285240178000000,18,,-1403168135268768983,0.9471969604492188,42.39056943333708,-6.648726604952855,14.278568754090347,60,19,0.0,16399,317375363441893,27,32.6,346.9148864746094,0.6710000038146973,16,0.0,0.0,1575420030,,,,0,,1,2.84,29.200000000000003,0.0,0.0,,,C,294386757673112
Raw,1719418157446,285240178000000,18,,-1403168135268768983,0.9471969604492188,42.39056943333708,-6.648726604952855,14.278568754090347,60,21,0.0,16399,317375363194837,31,31.8,589.6344604492188,0.7310000061988831,16,0.0,0.0,1575420030,,,,0,,1,2.84,28.400000000000002,0.0,0.0,,,C,294386757673112
Raw,1719418157446,285240178000000,18,,-1403168135268768983,0.9471969604492188,42.39056943333708,-6.648726604952855,14.278568754090347,60,26,0.0,16399,317375368132043,31,31.8,55.470603942871094,0.7384999990463257,16,0.0,0.0,1575420030,,,,0,,1,2.84,28.400000000000002,0.0,0.0,,,C,294386757673112
Raw,1719418157446,285240178000000,18,,-1403168135268768983,0.9471969604492188,42.39056943333708,-6.648726604952855,14.278568754090347,60,31,0.0,16399,317375367623756,35,31.3,657.92138671875,0.7369999885559082,16,0.0,0.0,1575420030,,,,0,,1,2.84,27.900000000000002,0.0,0.0,,,C,294386757673112
Fix,GPS,33.8182581900,35.4907953800,192.1346435546875,0.0,3.7900925,,1719418158000,0.10630146,,294400888255663,4.066499,0,,,
Fix,FLP,33.8182582000,35.4907954000,697.5000610351562,0.000000000000000014123055,3.9,,1719418157885,0.10630146,,294400888255663,20.768105,0,,,
Status,1719418158000,43,0,1,2,1575420030,33.40,180.0,18.0,1,1,1,28.4
Status,1719418158000,43,1,1,3,1575420030,33.50,88.0,66.0,1,1,1,28.5
Status,1719418158000,43,2,1,4,1575420030,33.20,354.0,63.0,1,1,1,28.2
Status,1719418158000,43,3,1,6,1575420030,33.20,307.0,28.0,1,1,1,28.2
Status,1719418158000,43,4,1,7,1575420030,33.10,209.0,26.0,1,1,1,28.1
Status,1719418158000,43,5,1,9,1575420030,33.70,286.0,44.0,1,1,1,28.7
Status,1719418158000,43,6,1,16,1575420030,32.60,105.0,18.0,1,1,1,27.6
Status,1719418158000,43,7,1,17,1575420030,33.40,248.0,1.0,0,1,1,28.4
Status,1719418158000,43,8,1,19,1575420030,33.20,270.0,3.0,0,1,1,28.2
Status,1719418158000,43,9,1,21,1575420030,33.40,171.0,7.0,1,1,1,28.4
Status,1719418158000,43,10,1,26,1575420030,33.00,66.0,18.0,1,1,1,28.0
Status,1719418158000,43,11,1,31,1575420030,33.00,42.0,18.0,1,1,1,28.0
Status,1719418158000,43,12,3,2,1599750020,0.00,307.0,28.0,0,1,0,0.0
Status,1719418158000,43,13,3,12,1601437440,0.00,157.0,26.0,0,1,1,0.0
Status,1719418158000,43,14,3,11,1602000000,0.00,84.0,46.0,0,1,1,0.0
Status,1719418158000,43,15,3,1,1602562560,0.00,12.0,49.0,0,1,0,0.0
Status,1719418158000,43,16,3,24,1603124990,0.00,234.0,30.0,0,1,1,0.0
Status,1719418158000,43,17,3,17,1604249980,0.00,298.0,30.0,0,1,0,0.0
Status,1719418158000,43,18,3,8,1605374980,0.00,73.0,17.0,0,1,1,0.0
Status,1719418158000,43,19,5,2,1561097980,0.00,115.0,26.0,0,1,0,0.0
Status,1719418158000,43,20,5,3,1561097980,0.00,98.0,2.0,0,1,0,0.0
Status,1719418158000,43,21,5,5,1561097980,0.00,140.0,44.0,0,1,0,0.0
Status,1719418158000,43,22,5,6,1561097980,0.00,43.0,26.0,0,1,0,0.0
Status,1719418158000,43,23,5,9,1561097980,0.00,45.0,43.0,0,1,0,0.0
Status,1719418158000,43,24,5,13,1561097980,0.00,135.0,8.0,0,1,0,0.0
Status,1719418158000,43,25,5,16,1561097980,0.00,42.0,24.0,0,1,0,0.0
Status,1719418158000,43,26,5,19,1561097980,0.00,334.0,56.0,0,1,0,0.0
Status,1719418158000,43,27,5,20,1561097980,0.00,68.0,47.0,0,1,1,0.0
Status,1719418158000,43,28,5,22,1561097980,0.00,293.0,14.0,0,1,0,0.0
Status,1719418158000,43,29,5,29,1561097980,0.00,209.0,11.0,0,1,1,0.0
Status,1719418158000,43,30,5,32,1561097980,0.00,98.0,1.0,0,1,0,0.0
Status,1719418158000,43,31,5,35,1561097980,0.00,267.0,21.0,0,1,1,0.0
Status,1719418158000,43,32,5,36,1561097980,0.00,182.0,21.0,0,1,0,0.0
Status,1719418158000,43,33,5,37,1561097980,0.00,54.0,30.0,0,1,0,0.0
Status,1719418158000,43,34,6,4,1575420030,0.00,265.0,19.0,0,1,0,0.0
Status,1719418158000,43,35,6,10,1575420030,0.00,306.0,34.0,0,1,0,0.0
Status,1719418158000,43,36,6,11,1575420030,0.00,323.0,11.0,0,1,0,0.0
Status,1719418158000,43,37,6,12,1575420030,0.00,279.0,50.0,0,1,0,0.0
Status,1719418158000,43,38,6,19,1575420030,0.00,327.0,63.0,0,1,0,0.0
Status,1719418158000,43,39,6,21,1575420030,0.00,129.0,18.0,0,1,0,0.0
Status,1719418158000,43,40,6,26,1575420030,0.00,163.0,2.0,0,1,0,0.0
Status,1719418158000,43,41,6,27,1575420030,0.00,75.0,18.0,0,1,0,0.0
Status,1719418158000,43,42,6,33,1575420030,0.00,192.0,40.0,0,1,1,0.0
Raw,1719418158446,285241178000000,18,,-1403168135268768988,0.16554641723632812,41.060589865082875,-5.948709104073128,15.201317993613502,60,2,0.0,16399,317376367015921,17,36.8,627.4403076171875,0.04280000180006027,16,0.0,1902.9177342976868,1575420030,,,,0,,1,4.97,33.4,0.0,0.0,,,C,294387758144882
Raw,1719418158446,285241178000000,18,,-1403168135268768988,0.16554641723632812,41.060589865082875,-5.948709104073128,15.201317993613502,60,3,0.0,16399,317376378637211,17,36.9,154.73275756835938,0.059300001710653305,16,0.0,1902.9177342976868,1575420030,,,,0,,1,4.97,33.5,0.0,0.0,,,C,294387758144882
Raw,1719418158446,285241178000000,18,,-1403168135268768988,0.16554641723632812,41.060589865082875,-5.948709104073128,15.201317993613502,60,4,0.0,16399,317376378048147,17,36.6,73.07086181640625,0.059300001710653305,16,0.0,1902.9177342976868,1575420030,,,,0,,1,4.97,33.2,0.0,0.0,,,C,294387758144882
Raw,1719418158446,285241178000000,18,,-1403168135268768988,0.16554641723632812,41.060589865082875,-5.948709104073128,15.201317993613502,60,6,0.0,16399,317376370515656,17,36.6,-364.944091796875,0.04729999974370003,16,0.0,1902.9177342976868,1575420030,,,,0,,1,4.97,33.2,0.0,0.0,,,C,294387758144882
Raw,1719418158446,285241178000000,18,,-1403168135268768988,0.16554641723632812,41.060589865082875,-5.948709104073128,15.201317993613502,60,7,0.0,16399,317376369297445,17,36.5,-567.4010620117188,0.04580000042915344,16,0.0,1902.9177342976868,1575420030,,,,0,,1,4.97,33.1,0.0,0.0,,,C,294387758144882
Raw,1719418158446,285241178000000,18,,-1403168135268768988,0.16554641723632812,41.060589865082875,-5.948709104073128,15.201317993613502,60,9,0.0,16399,317376374739728,17,37.1,-286.9804992675781,0.053300000727176666,16,0.0,1902.9177342976868,1575420030,,,,0,,1,4.97,33.7,0.0,0.0,,,C,294387758144882
